[
  
  {
    "name": "인천국제성모병원",
    "address": "서구 심곡로100번길 25",
    "lon": 126.683568558409,
    "lat": 37.5423430940453,
    "type": "병원",
    "level": "지역센터",
    "tel": "010-2111-3706"
  },
  {
    "name": "강화소방서(불은119안전센터)",
    "address": "인천광역시 강화군 불은면 중앙로 505",
    "lon": 126.458337525047,
    "lat": 37.712068398832,
    "type": "소방",
    "level": "소방서",
    "tel": ""
  },
  {
    "name": "강화119안전센터",
    "address": "인천광역시 강화군 강화읍 남문로23번길 11",
    "lon": 126.487362223777,
    "lat": 37.7395945456736,
    "type": "소방",
    "level": "안전센터",
    "tel": ""
  },
  {
    "name": "길상119안전센터",
    "address": "인천광역시 강화군 길상면 마니산로 93",
    "lon": 126.482567892195,
    "lat": 37.6383381483064,
    "type": "소방",
    "level": "안전센터",
    "tel": ""
  },
  {
    "name": "내가119안전센터",
    "address": "인천광역시 강화군 내가면 강화서로 235-1",
    "lon": 126.390106700614,
    "lat": 37.7175112457322,
    "type": "소방",
    "level": "안전센터",
    "tel": ""
  },
  {
    "name": "계양소방서(작전119안전센터)",
    "address": "인천광역시 계양구 장제로774",
    "lon": 126.734917972563,
    "lat": 37.537054263815,
    "type": "소방",
    "level": "소방서",
    "tel": ""
  },
  {
    "name": "계산119안전센터",
    "address": "인천광역시 계양구 주부토로557",
    "lon": 126.728242467592,
    "lat": 37.543988843055,
    "type": "소방",
    "level": "안전센터",
    "tel": ""
  },
  {
    "name": "장기119안전센터",
    "address": "인천광역시 계양구 장기서로14",
    "lon": 126.733690329638,
    "lat": 37.5763339796147,
    "type": "소방",
    "level": "안전센터",
    "tel": ""
  },
  {
    "name": "효성119안전센터",
    "address": "인천광역시 계양구 효서로 96-1",
    "lon": 126.706489933391,
    "lat": 37.5275762841482,
    "type": "소방",
    "level": "안전센터",
    "tel": ""
  },
  {
    "name": "공단소방서(고잔119안전센터)",
    "address": "인천광역시 남동구 남동서로 208",
    "lon": 126.693000037004,
    "lat": 37.4081755045764,
    "type": "소방",
    "level": "소방서",
    "tel": ""
  },
  {
    "name": "남동소방서(구월119안전센터)",
    "address": "인천광역시 남동구 인주대로 714",
    "lon": 126.716891927554,
    "lat": 37.4488805965133,
    "type": "소방",
    "level": "소방서",
    "tel": ""
  },
  {
    "name": "논현119안전센터",
    "address": "인천광역시 남동구 소래역로 109",
    "lon": 126.729675738644,
    "lat": 37.4053359288932,
    "type": "소방",
    "level": "안전센터",
    "tel": ""
  },
  {
    "name": "도림119안전센터",
    "address": "인천광역시 남동구 비류대로 667",
    "lon": 126.709113344636,
    "lat": 37.4226793545092,
    "type": "소방",
    "level": "안전센터",
    "tel": ""
  },
  {
    "name": "소래119안전센터",
    "address": "인천광역시 남동구 에코중앙로 86",
    "lon": 126.720720286771,
    "lat": 37.3864068663598,
    "type": "소방",
    "level": "안전센터",
    "tel": ""
  },
  {
    "name": "간석119안전센터",
    "address": "인천광역시 남동구 경인로 621",
    "lon": 126.706372842588,
    "lat": 37.4658256257215,
    "type": "소방",
    "level": "안전센터",
    "tel": ""
  },
  {
    "name": "담방119안전센터",
    "address": "인천광역시 남동구 매소홀로 1044",
    "lon": 126.739022151538,
    "lat": 37.4393349446136,
    "type": "소방",
    "level": "안전센터",
    "tel": ""
  },
  {
    "name": "만수119안전센터",
    "address": "인천광역시 남동구 백범로 207",
    "lon": 126.725802961472,
    "lat": 37.4596809341528,
    "type": "소방",
    "level": "안전센터",
    "tel": ""
  },
  {
    "name": "서창119안전센터",
    "address": "인천광역시 남동구 서창방산로 61",
    "lon": 126.751573194387,
    "lat": 37.4226790774815,
    "type": "소방",
    "level": "안전센터",
    "tel": ""
  },
  {
    "name": "만석119안전센터",
    "address": "인천광역시 동구 제물량로 396",
    "lon": 126.625813427573,
    "lat": 37.4833974347001,
    "type": "소방",
    "level": "안전센터",
    "tel": ""
  },
  {
    "name": "송림119안전센터",
    "address": "인천광역시 동구 샛골로 133",
    "lon": 126.644083568743,
    "lat": 37.4743116594514,
    "type": "소방",
    "level": "안전센터",
    "tel": ""
  },
  {
    "name": "송현119안전센터",
    "address": "인천광역시 동구 방축로 39",
    "lon": 126.650986121906,
    "lat": 37.4863115582023,
    "type": "소방",
    "level": "안전센터",
    "tel": ""
  },
  {
    "name": "미추홀소방서(신기119안전센터)",
    "address": "인천광역시 미추홀구 인하로 190",
    "lon": 126.669060075088,
    "lat": 37.448445762434,
    "type": "소방",
    "level": "소방서",
    "tel": ""
  },
  {
    "name": "관교119안전센터",
    "address": "인천광역시 미추홀구 인하로 450",
    "lon": 126.696590337942,
    "lat": 37.4443091294376,
    "type": "소방",
    "level": "안전센터",
    "tel": ""
  },
  {
    "name": "도화119안전센터",
    "address": "인천광역시 미추홀구 장고개로 85",
    "lon": 126.669304839088,
    "lat": 37.4754500177007,
    "type": "소방",
    "level": "안전센터",
    "tel": ""
  },
  {
    "name": "숭의119안전센터",
    "address": "인천광역시 미추홀구 석정로49번길 30",
    "lon": 126.642497875885,
    "lat": 37.4649934420385,
    "type": "소방",
    "level": "안전센터",
    "tel": ""
  },
  {
    "name": "용현119안전센터",
    "address": "인천광역시 미추홀구 독배로 376",
    "lon": 126.648575780992,
    "lat": 37.4533880406862,
    "type": "소방",
    "level": "안전센터",
    "tel": ""
  },
  {
    "name": "주안119안전센터",
    "address": "인천광역시 미추홀구 한나루로 607",
    "lon": 126.672270959541,
    "lat": 37.460463810933,
    "type": "소방",
    "level": "안전센터",
    "tel": ""
  },
  {
    "name": "부평소방서(갈산119안전센터)",
    "address": "인천광역시 부평구 부평대로 324",
    "lon": 126.722149279371,
    "lat": 37.5202257852865,
    "type": "소방",
    "level": "소방서",
    "tel": ""
  },
  {
    "name": "부개119안전센터",
    "address": "인천광역시 부평구 부개로 6",
    "lon": 126.739692385025,
    "lat": 37.4978732318612,
    "type": "소방",
    "level": "안전센터",
    "tel": ""
  },
  {
    "name": "부평119안전센터",
    "address": "인천광역시 부평구 부평대로 8",
    "lon": 126.723441338097,
    "lat": 37.4921721425234,
    "type": "소방",
    "level": "안전센터",
    "tel": ""
  },
  {
    "name": "산곡119안전센터",
    "address": "인천광역시 부평구 마장로 198",
    "lon": 126.703096556192,
    "lat": 37.4957144367975,
    "type": "소방",
    "level": "안전센터",
    "tel": ""
  },
  {
    "name": "삼산119안전센터",
    "address": "인천광역시 부평구 충선로 252",
    "lon": 126.736092852455,
    "lat": 37.5117535743829,
    "type": "소방",
    "level": "안전센터",
    "tel": ""
  },
  {
    "name": "십정119안전센터",
    "address": "인천광역시 부평구 경원대로 1111",
    "lon": 126.697246324424,
    "lat": 37.4803070054783,
    "type": "소방",
    "level": "안전센터",
    "tel": ""
  },
  {
    "name": "검단소방서(마전119안전센터)",
    "address": "인천광역시 서구 원당대로736",
    "lon": 126.682478383586,
    "lat": 37.5936342809621,
    "type": "소방",
    "level": "소방서",
    "tel": ""
  },
  {
    "name": "서부소방서",
    "address": "인천광역시 서구 서곶로 326",
    "lon": 126.677323860339,
    "lat": 37.5467811678608,
    "type": "소방",
    "level": "소방서",
    "tel": ""
  },
  {
    "name": "검단119안전센터",
    "address": "인천광역시 서구 완정로191",
    "lon": 126.655133030614,
    "lat": 37.602645173654,
    "type": "소방",
    "level": "안전센터",
    "tel": ""
  },
  {
    "name": "오류119안전센터",
    "address": "인천광역시 서구 대촌로6",
    "lon": 126.632580763959,
    "lat": 37.5945880736795,
    "type": "소방",
    "level": "안전센터",
    "tel": ""
  },
  {
    "name": "원당119안전센터",
    "address": "인천광역시 서구 원당대로881",
    "lon": 126.699661235414,
    "lat": 37.5937816073867,
    "type": "소방",
    "level": "안전센터",
    "tel": ""
  },
  {
    "name": "가좌119안전센터",
    "address": "인천광역시 서구 백범로678번길 17",
    "lon": 126.682607582309,
    "lat": 37.4822906248163,
    "type": "소방",
    "level": "안전센터",
    "tel": ""
  },
  {
    "name": "검암119안전센터",
    "address": "인천광역시 서구 승학로 474",
    "lon": 126.673594392091,
    "lat": 37.5640759460826,
    "type": "소방",
    "level": "안전센터",
    "tel": ""
  },
  {
    "name": "석남119안전센터",
    "address": "인천광역시 서구 석남로 102",
    "lon": 126.672967800046,
    "lat": 37.5005927312449,
    "type": "소방",
    "level": "안전센터",
    "tel": ""
  },
  {
    "name": "신현119안전센터",
    "address": "인천광역시 서구 가정로 333-1",
    "lon": 126.672511011103,
    "lat": 37.5147325881069,
    "type": "소방",
    "level": "안전센터",
    "tel": ""
  },
  {
    "name": "연희119안전센터",
    "address": "인천광역시 서구 서곶로 292",
    "lon": 126.677248182913,
    "lat": 37.5433891634204,
    "type": "소방",
    "level": "안전센터",
    "tel": ""
  },
  {
    "name": "원창119안전센터",
    "address": "인천광역시 서구 북항로32번길 47-5",
    "lon": 126.644700629048,
    "lat": 37.5105177892804,
    "type": "소방",
    "level": "안전센터",
    "tel": ""
  },
  {
    "name": "청라119안전센터",
    "address": "인천광역시 서구 청라한내로 77",
    "lon": 126.627127676255,
    "lat": 37.5321723566538,
    "type": "소방",
    "level": "안전센터",
    "tel": ""
  },
  {
    "name": "송도소방서(미래119안전센터)",
    "address": "인천광역시 연수구 첨단대로60번길 15",
    "lon": 126.651588040332,
    "lat": 37.3672280788106,
    "type": "소방",
    "level": "소방서",
    "tel": ""
  },
  {
    "name": "동춘119안전센터",
    "address": "인천광역시 연수구 앵고개로 241",
    "lon": 126.671288972739,
    "lat": 37.4091495210335,
    "type": "소방",
    "level": "안전센터",
    "tel": ""
  },
  {
    "name": "옥련119안전센터",
    "address": "인천광역시 연수구 청량로155번길 7",
    "lon": 126.651934248826,
    "lat": 37.4206698228865,
    "type": "소방",
    "level": "안전센터",
    "tel": ""
  },
  {
    "name": "국제119안전센터",
    "address": "인천광역시 연수구 센트럴로 412",
    "lon": 126.6287822744,
    "lat": 37.4102286285073,
    "type": "소방",
    "level": "안전센터",
    "tel": ""
  },
  {
    "name": "신송119안전센터",
    "address": "인천광역시 연수구 해돋이로 92",
    "lon": 126.65189340908,
    "lat": 37.3909227454514,
    "type": "소방",
    "level": "안전센터",
    "tel": ""
  },
  {
    "name": "영흥119안전센터",
    "address": "인천광역시 옹진군 영흥로 283-32",
    "lon": 126.483902564782,
    "lat": 37.2564354715708,
    "type": "소방",
    "level": "안전센터",
    "tel": ""
  },
  {
    "name": "백령119안전센터",
    "address": "인천광역시 옹진군 백령면 백령남로 30",
    "lon": 124.717686291899,
    "lat": 37.967449896222,
    "type": "소방",
    "level": "안전센터",
    "tel": ""
  },
  {
    "name": "영종소방서(공항119안전센터)",
    "address": "인천광역시 중구 제2터미널대로 268",
    "lon": 126.415515641282,
    "lat": 37.4868731703979,
    "type": "소방",
    "level": "소방서",
    "tel": ""
  },
  {
    "name": "중부소방서(중앙119안전센터)",
    "address": "인천광역시 중구 인중로 204",
    "lon": 126.622340066185,
    "lat": 37.4701498156144,
    "type": "소방",
    "level": "소방서",
    "tel": ""
  },
  {
    "name": "공항119안전센터",
    "address": "인천광역시 중구 제2터미널대로 268",
    "lon": 126.415515641282,
    "lat": 37.4868731703979,
    "type": "소방",
    "level": "안전센터",
    "tel": ""
  },
  {
    "name": "용유119안전센터",
    "address": "인천광역시 중구 용유서로128번길 1",
    "lon": 126.393957636148,
    "lat": 37.4485444022982,
    "type": "소방",
    "level": "안전센터",
    "tel": ""
  },
  {
    "name": "운남119안전센터",
    "address": "인천광역시 중구 운남로 116",
    "lon": 126.53330556623,
    "lat": 37.488045907059,
    "type": "소방",
    "level": "안전센터",
    "tel": ""
  },
  {
    "name": "운서119안전센터",
    "address": "인천광역시 중구 흰바위로27번길 16",
    "lon": 126.488414963111,
    "lat": 37.493719510686,
    "type": "소방",
    "level": "안전센터",
    "tel": ""
  },
  {
    "name": "연안119안전센터",
    "address": "인천광역시 중구 축항대로118번길 108",
    "lon": 126.604156383729,
    "lat": 37.4466047459004,
    "type": "소방",
    "level": "안전센터",
    "tel": ""
  },
  {
    "name": "광명119안전센터",
    "address": "경기도 광명시 목감로 306",
    "lon": 126.860264581328,
    "lat": 37.4877981580246,
    "type": "소방",
    "level": "안전센터",
    "tel": ""
  },
  {
    "name": "광명소방서(소하119안전센터)",
    "address": "경기도 광명시 금하로 472",
    "lon": 126.885131305413,
    "lat": 37.4487143385419,
    "type": "소방",
    "level": "소방서",
    "tel": ""
  },
  {
    "name": "하안119안전센터",
    "address": "경기도 광명시 범안로 1025",
    "lon": 126.877094070067,
    "lat": 37.4615077485066,
    "type": "소방",
    "level": "안전센터",
    "tel": ""
  },
  {
    "name": "광남119안전센터",
    "address": "경기도 광명시 목감로 34",
    "lon": 126.845605135979,
    "lat": 37.4714777854294,
    "type": "소방",
    "level": "안전센터",
    "tel": ""
  },
  {
    "name": "김포소방서(중앙119안전센터)",
    "address": "경기도 김포시 감암로 111",
    "lon": 126.7085359654,
    "lat": 37.6415655279945,
    "type": "소방",
    "level": "소방서",
    "tel": ""
  },
  {
    "name": "양촌119안전센터",
    "address": "경기도 김포시 양곡1로 85",
    "lon": 126.622327912508,
    "lat": 37.6581110552064,
    "type": "소방",
    "level": "안전센터",
    "tel": ""
  },
  {
    "name": "마산119안전센터",
    "address": "경기도 김포시 김포한강8로 196",
    "lon": 126.644319128034,
    "lat": 37.6396597030133,
    "type": "소방",
    "level": "안전센터",
    "tel": ""
  },
  {
    "name": "대곶119안전센터",
    "address": "경기도 김포시 대곶면 수남로 104",
    "lon": 126.582481793136,
    "lat": 37.633475202913,
    "type": "소방",
    "level": "안전센터",
    "tel": ""
  },
  {
    "name": "통진119안전센터",
    "address": "경기도 김포시 통진읍 김포대로 2250",
    "lon": 126.596328841226,
    "lat": 37.6906614612924,
    "type": "소방",
    "level": "안전센터",
    "tel": ""
  },
  {
    "name": "고촌119안전센터",
    "address": "경기도 김포시 고촌읍 은행영사정로 31",
    "lon": 126.773758886841,
    "lat": 37.6023740300638,
    "type": "소방",
    "level": "안전센터",
    "tel": ""
  },
  {
    "name": "하성119안전센터",
    "address": "경기도 김포시 하성면 하성로 404",
    "lon": 126.637666084616,
    "lat": 37.7112774859604,
    "type": "소방",
    "level": "안전센터",
    "tel": ""
  },
  {
    "name": "괴안119안전센터",
    "address": "경기도 부천시 소사구 부광로8번길 49",
    "lon": 126.810439637854,
    "lat": 37.482716149283,
    "type": "소방",
    "level": "안전센터",
    "tel": ""
  },
  {
    "name": "범박119안전센터",
    "address": "경기도 부천시 소사구 범안로 127",
    "lon": 126.809413122136,
    "lat": 37.4705232236288,
    "type": "소방",
    "level": "안전센터",
    "tel": ""
  },
  {
    "name": "오정119안전센터",
    "address": "경기도 부천시 오정구 신흥로 499",
    "lon": 126.777475548441,
    "lat": 37.5277585766989,
    "type": "소방",
    "level": "안전센터",
    "tel": ""
  },
  {
    "name": "원종119안전센터",
    "address": "경기도 부천시 오정구 원종로79번길 41",
    "lon": 126.808496450708,
    "lat": 37.5260061746913,
    "type": "소방",
    "level": "안전센터",
    "tel": ""
  },
  {
    "name": "여월119안전센터",
    "address": "경기도 부천시 오정구 여월로 62",
    "lon": 126.805392451009,
    "lat": 37.5113612613326,
    "type": "소방",
    "level": "안전센터",
    "tel": ""
  },
  {
    "name": "부천소방서(중앙119안전센터)",
    "address": "경기도 부천시 원미구 신흥로 115",
    "lon": 126.778052569053,
    "lat": 37.4940124263173,
    "type": "소방",
    "level": "소방서",
    "tel": ""
  },
  {
    "name": "중동119안전센터",
    "address": "경기도 부천시 원미구 부일로 346",
    "lon": 126.76852800331,
    "lat": 37.4877205366711,
    "type": "소방",
    "level": "안전센터",
    "tel": ""
  },
  {
    "name": "상동119안전센터",
    "address": "경기도 부천시 원미구 장말로 113",
    "lon": 126.754496545474,
    "lat": 37.4942981137064,
    "type": "소방",
    "level": "안전센터",
    "tel": ""
  },
  {
    "name": "서부119안전센터",
    "address": "경기도 부천시 원미구 계남로 169",
    "lon": 126.767774185027,
    "lat": 37.5079070548544,
    "type": "소방",
    "level": "안전센터",
    "tel": ""
  },
  {
    "name": "신상119안전센터",
    "address": "경기도 부천시 원미구 상동로117번길 36",
    "lon": 126.751559932545,
    "lat": 37.5081274274471,
    "type": "소방",
    "level": "안전센터",
    "tel": ""
  },
  {
    "name": "시흥소방서(시흥119안전센터)",
    "address": "경기도 시흥시 정왕신길로 206",
    "lon": 126.739531631495,
    "lat": 37.349561429997,
    "type": "소방",
    "level": "소방서",
    "tel": ""
  },
  {
    "name": "은행119안전센터",
    "address": "경기도 시흥시 대은로 4",
    "lon": 126.793289026629,
    "lat": 37.4393655399614,
    "type": "소방",
    "level": "안전센터",
    "tel": ""
  },
  {
    "name": "정왕119안전센터",
    "address": "경기도 공단1대로259번길 1",
    "lon": 126.729716964601,
    "lat": 37.3355707834922,
    "type": "소방",
    "level": "안전센터",
    "tel": ""
  },
  {
    "name": "연성119안전센터",
    "address": "경기도 시흥시 새재로 29",
    "lon": 126.802937551443,
    "lat": 37.381903084479,
    "type": "소방",
    "level": "안전센터",
    "tel": ""
  },
  {
    "name": "목감119안전센터",
    "address": "경기도 시흥시 목감우회로 15",
    "lon": 126.857742562004,
    "lat": 37.3813946011407,
    "type": "소방",
    "level": "안전센터",
    "tel": ""
  },
  {
    "name": "배곧119안전센터",
    "address": "경기도 시흥시 서울대학로278번길 80",
    "lon": 126.732305734014,
    "lat": 37.3685812554404,
    "type": "소방",
    "level": "안전센터",
    "tel": ""
  },
  {
    "name": "사동119안전센터",
    "address": "경기도 안산시 상록구 항가울로 230 (사동)",
    "lon": 126.843649279599,
    "lat": 37.300852612644,
    "type": "소방",
    "level": "안전센터",
    "tel": ""
  },
  {
    "name": "반월119안전센터",
    "address": "경기도 안산시 상록구 건지미길 48 (건건동)",
    "lon": 126.905538102688,
    "lat": 37.3030077823494,
    "type": "소방",
    "level": "안전센터",
    "tel": ""
  },
  {
    "name": "상록수119안전센터",
    "address": "경기도 안산시 상록구 충장로 237 (본오동)",
    "lon": 126.859523586399,
    "lat": 37.3026518841157,
    "type": "소방",
    "level": "안전센터",
    "tel": ""
  },
  {
    "name": "월피119안전센터",
    "address": "경기도 안산시 상록구 충장로 645 (월피동)",
    "lon": 126.854451438203,
    "lat": 37.335035369418,
    "type": "소방",
    "level": "안전센터",
    "tel": ""
  },
  {
    "name": "군자119안전센터",
    "address": "경기도 안산시 단원구 번영1로 45 (성곡동)",
    "lon": 126.735823119242,
    "lat": 37.319899446982,
    "type": "소방",
    "level": "안전센터",
    "tel": ""
  },
  {
    "name": "대부119안전센터",
    "address": "경기도 안산시 단원구 영전로 375 (대부동동)",
    "lon": 126.617851099938,
    "lat": 37.2402702028901,
    "type": "소방",
    "level": "안전센터",
    "tel": ""
  },
  {
    "name": "신길119안전센터",
    "address": "경기도 안산시 단원구 삼일로 50(신길동)",
    "lon": 126.783640867463,
    "lat": 37.3350487087865,
    "type": "소방",
    "level": "안전센터",
    "tel": ""
  },
  {
    "name": "안산소방서(고잔119안전센터)",
    "address": "경기도 안산시 단원구 화랑로 407 (고잔동)",
    "lon": 126.832958805798,
    "lat": 37.3217355969893,
    "type": "소방",
    "level": "소방서",
    "tel": ""
  },
  {
    "name": "원시119안전센터",
    "address": "경기도 안산시 단원구 동산로 31 (원시동)",
    "lon": 126.793593313585,
    "lat": 37.3129658104123,
    "type": "소방",
    "level": "안전센터",
    "tel": ""
  },
  {
    "name": "선부119안전센터",
    "address": "경기도 안산시 단원구 선부광장서로 43 (선부동)",
    "lon": 126.804398466661,
    "lat": 37.333947116242,
    "type": "소방",
    "level": "안전센터",
    "tel": ""
  },
  {
    "name": "성곡119안전센터",
    "address": "경기도 안산시 단원구 장자골로 66 (성곡동)",
    "lon": 126.765526044663,
    "lat": 37.3126852956175,
    "type": "소방",
    "level": "안전센터",
    "tel": ""
  }
]