[
  {
    "lat": 37.5275762841482,
    "lon": 126.706489933391,
    "name": "효성119안전센터"
  },
  {
    "lat": 37.4081755045764,
    "lon": 126.693000037004,
    "name": "공단소방서(고잔119안전센터)"
  },
  {
    "lat": 37.4488805965133,
    "lon": 126.716891927554,
    "name": "남동소방서(구월119안전센터)"
  },
  {
    "lat": 37.4053359288932,
    "lon": 126.729675738644,
    "name": "논현119안전센터"
  },
  {
    "lat": 37.4226793545092,
    "lon": 126.709113344636,
    "name": "도림119안전센터"
  },
  {
    "lat": 37.3864068663598,
    "lon": 126.720720286771,
    "name": "소래119안전센터"
  },
  {
    "lat": 37.4658256257215,
    "lon": 126.706372842588,
    "name": "간석119안전센터"
  },
  {
    "lat": 37.4393349446136,
    "lon": 126.739022151538,
    "name": "담방119안전센터"
  },
  {
    "lat": 37.4596809341528,
    "lon": 126.725802961472,
    "name": "만수119안전센터"
  },
  {
    "lat": 37.4226790774815,
    "lon": 126.751573194387,
    "name": "서창119안전센터"
  },
  {
    "lat": 37.4833974347001,
    "lon": 126.625813427573,
    "name": "만석119안전센터"
  },
  {
    "lat": 37.4743116594514,
    "lon": 126.644083568743,
    "name": "송림119안전센터"
  },
  {
    "lat": 37.4863115582023,
    "lon": 126.650986121906,
    "name": "송현119안전센터"
  },
  {
    "lat": 37.448445762434,
    "lon": 126.669060075088,
    "name": "미추홀소방서(신기119안전센터)"
  },
  {
    "lat": 37.444465,
    "lon": 126.69671,
    "name": "관교119안전센터"
  },
  {
    "lat": 37.4754500177007,
    "lon": 126.669304839088,
    "name": "도화119안전센터"
  },
  {
    "lat": 37.4649934420385,
    "lon": 126.642497875885,
    "name": "숭의119안전센터"
  },
  {
    "lat": 37.4533880406862,
    "lon": 126.648575780992,
    "name": "용현119안전센터"
  },
  {
    "lat": 37.460463810933,
    "lon": 126.672270959541,
    "name": "주안119안전센터"
  },
  {
    "lat": 37.5202257852865,
    "lon": 126.722149279371,
    "name": "부평소방서(갈산119안전센터)"
  },
  {
    "lat": 37.4978732318612,
    "lon": 126.739692385025,
    "name": "부개119안전센터"
  },
  {
    "lat": 37.4921721425234,
    "lon": 126.723441338097,
    "name": "부평119안전센터"
  },
  {
    "lat": 37.4957144367975,
    "lon": 126.703096556192,
    "name": "산곡119안전센터"
  },
  {
    "lat": 37.5117535743829,
    "lon": 126.736092852455,
    "name": "삼산119안전센터"
  },
  {
    "lat": 37.4803070054783,
    "lon": 126.697246324424,
    "name": "십정119안전센터"
  },
  {
    "lat": 37.4822906248163,
    "lon": 126.682607582309,
    "name": "가좌119안전센터"
  },
  {
    "lat": 37.5005927312449,
    "lon": 126.672967800046,
    "name": "석남119안전센터"
  },
  {
    "lat": 37.5147325881069,
    "lon": 126.672511011103,
    "name": "신현119안전센터"
  },
  {
    "lat": 37.5105177892804,
    "lon": 126.644700629048,
    "name": "원창119안전센터"
  },
  {
    "lat": 37.4091495210335,
    "lon": 126.671288972739,
    "name": "동춘119안전센터"
  },
  {
    "lat": 37.4206698228865,
    "lon": 126.651934248826,
    "name": "옥련119안전센터"
  },
  {
    "lat": 37.4102286285073,
    "lon": 126.6287822744,
    "name": "국제119안전센터"
  },
  {
    "lat": 37.3909227454514,
    "lon": 126.65189340908,
    "name": "신송119안전센터"
  },
  {
    "lat": 37.4701498156144,
    "lon": 126.622340066185,
    "name": "중부소방서(중앙119안전센터)"
  },
  {
    "lat": 37.4466047459004,
    "lon": 126.604156383729,
    "name": "연안119안전센터"
  },
  {
    "lat": 37.4940124263173,
    "lon": 126.778052569053,
    "name": "부천소방서(중앙119안전센터)"
  },
  {
    "lat": 37.4877205366711,
    "lon": 126.76852800331,
    "name": "중동119안전센터"
  },
  {
    "lat": 37.4942981137064,
    "lon": 126.754496545474,
    "name": "상동119안전센터"
  },
  {
    "lat": 37.5079070548544,
    "lon": 126.767774185027,
    "name": "서부119안전센터"
  },
  {
    "lat": 37.5081274274471,
    "lon": 126.751559932545,
    "name": "신상119안전센터"
  },
  {
    "lat": 37.4393655399614,
    "lon": 126.793289026629,
    "name": "은행119안전센터"
  }
]