[
  {
    "name": "효성119안전센터",
    "address": "인천광역시 계양구 효서로 96-1",
    "lon": 126.706489933391,
    "lat": 37.5275762841482,
    "type": "소방",
    "level": "안전센터",
    "tel": ""
  },
  {
    "name": "공단소방서(고잔119안전센터)",
    "address": "인천광역시 남동구 남동서로 208",
    "lon": 126.693000037004,
    "lat": 37.4081755045764,
    "type": "소방",
    "level": "소방서",
    "tel": ""
  },
  {
    "name": "남동소방서(구월119안전센터)",
    "address": "인천광역시 남동구 인주대로 714",
    "lon": 126.716891927554,
    "lat": 37.4488805965133,
    "type": "소방",
    "level": "소방서",
    "tel": ""
  },
  {
    "name": "논현119안전센터",
    "address": "인천광역시 남동구 소래역로 109",
    "lon": 126.729675738644,
    "lat": 37.4053359288932,
    "type": "소방",
    "level": "안전센터",
    "tel": ""
  },
  {
    "name": "도림119안전센터",
    "address": "인천광역시 남동구 비류대로 667",
    "lon": 126.709113344636,
    "lat": 37.4226793545092,
    "type": "소방",
    "level": "안전센터",
    "tel": ""
  },
  {
    "name": "소래119안전센터",
    "address": "인천광역시 남동구 에코중앙로 86",
    "lon": 126.720720286771,
    "lat": 37.3864068663598,
    "type": "소방",
    "level": "안전센터",
    "tel": ""
  },
  {
    "name": "간석119안전센터",
    "address": "인천광역시 남동구 경인로 621",
    "lon": 126.706372842588,
    "lat": 37.4658256257215,
    "type": "소방",
    "level": "안전센터",
    "tel": ""
  },
  {
    "name": "담방119안전센터",
    "address": "인천광역시 남동구 매소홀로 1044",
    "lon": 126.739022151538,
    "lat": 37.4393349446136,
    "type": "소방",
    "level": "안전센터",
    "tel": ""
  },
  {
    "name": "만수119안전센터",
    "address": "인천광역시 남동구 백범로 207",
    "lon": 126.725802961472,
    "lat": 37.4596809341528,
    "type": "소방",
    "level": "안전센터",
    "tel": ""
  },
  {
    "name": "서창119안전센터",
    "address": "인천광역시 남동구 서창방산로 61",
    "lon": 126.751573194387,
    "lat": 37.4226790774815,
    "type": "소방",
    "level": "안전센터",
    "tel": ""
  },
  {
    "name": "만석119안전센터",
    "address": "인천광역시 동구 제물량로 396",
    "lon": 126.625813427573,
    "lat": 37.4833974347001,
    "type": "소방",
    "level": "안전센터",
    "tel": ""
  },
  {
    "name": "송림119안전센터",
    "address": "인천광역시 동구 샛골로 133",
    "lon": 126.644083568743,
    "lat": 37.4743116594514,
    "type": "소방",
    "level": "안전센터",
    "tel": ""
  },
  {
    "name": "송현119안전센터",
    "address": "인천광역시 동구 방축로 39",
    "lon": 126.650986121906,
    "lat": 37.4863115582023,
    "type": "소방",
    "level": "안전센터",
    "tel": ""
  },
  {
    "name": "미추홀소방서(신기119안전센터)",
    "address": "인천광역시 미추홀구 인하로 190",
    "lon": 126.669060075088,
    "lat": 37.448445762434,
    "type": "소방",
    "level": "소방서",
    "tel": ""
  },
  {
    "name": "관교119안전센터",
    "address": "인천광역시 미추홀구 인하로 450",
    "lon": 126.696590337942,
    "lat": 37.4443091294376,
    "type": "소방",
    "level": "안전센터",
    "tel": ""
  },
  {
    "name": "도화119안전센터",
    "address": "인천광역시 미추홀구 장고개로 85",
    "lon": 126.669304839088,
    "lat": 37.4754500177007,
    "type": "소방",
    "level": "안전센터",
    "tel": ""
  },
  {
    "name": "숭의119안전센터",
    "address": "인천광역시 미추홀구 석정로49번길 30",
    "lon": 126.642497875885,
    "lat": 37.4649934420385,
    "type": "소방",
    "level": "안전센터",
    "tel": ""
  },
  {
    "name": "용현119안전센터",
    "address": "인천광역시 미추홀구 독배로 376",
    "lon": 126.648575780992,
    "lat": 37.4533880406862,
    "type": "소방",
    "level": "안전센터",
    "tel": ""
  },
  {
    "name": "주안119안전센터",
    "address": "인천광역시 미추홀구 한나루로 607",
    "lon": 126.672270959541,
    "lat": 37.460463810933,
    "type": "소방",
    "level": "안전센터",
    "tel": ""
  },
  {
    "name": "부평소방서(갈산119안전센터)",
    "address": "인천광역시 부평구 부평대로 324",
    "lon": 126.722149279371,
    "lat": 37.5202257852865,
    "type": "소방",
    "level": "소방서",
    "tel": ""
  },
  {
    "name": "부개119안전센터",
    "address": "인천광역시 부평구 부개로 6",
    "lon": 126.739692385025,
    "lat": 37.4978732318612,
    "type": "소방",
    "level": "안전센터",
    "tel": ""
  },
  {
    "name": "부평119안전센터",
    "address": "인천광역시 부평구 부평대로 8",
    "lon": 126.723441338097,
    "lat": 37.4921721425234,
    "type": "소방",
    "level": "안전센터",
    "tel": ""
  },
  {
    "name": "산곡119안전센터",
    "address": "인천광역시 부평구 마장로 198",
    "lon": 126.703096556192,
    "lat": 37.4957144367975,
    "type": "소방",
    "level": "안전센터",
    "tel": ""
  },
  {
    "name": "삼산119안전센터",
    "address": "인천광역시 부평구 충선로 252",
    "lon": 126.736092852455,
    "lat": 37.5117535743829,
    "type": "소방",
    "level": "안전센터",
    "tel": ""
  },
  {
    "name": "십정119안전센터",
    "address": "인천광역시 부평구 경원대로 1111",
    "lon": 126.697246324424,
    "lat": 37.4803070054783,
    "type": "소방",
    "level": "안전센터",
    "tel": ""
  },
  {
    "name": "가좌119안전센터",
    "address": "인천광역시 서구 백범로678번길 17",
    "lon": 126.682607582309,
    "lat": 37.4822906248163,
    "type": "소방",
    "level": "안전센터",
    "tel": ""
  },
  {
    "name": "석남119안전센터",
    "address": "인천광역시 서구 석남로 102",
    "lon": 126.672967800046,
    "lat": 37.5005927312449,
    "type": "소방",
    "level": "안전센터",
    "tel": ""
  },
  {
    "name": "신현119안전센터",
    "address": "인천광역시 서구 가정로 333-1",
    "lon": 126.672511011103,
    "lat": 37.5147325881069,
    "type": "소방",
    "level": "안전센터",
    "tel": ""
  },
  {
    "name": "원창119안전센터",
    "address": "인천광역시 서구 북항로32번길 47-5",
    "lon": 126.644700629048,
    "lat": 37.5105177892804,
    "type": "소방",
    "level": "안전센터",
    "tel": ""
  },
  {
    "name": "동춘119안전센터",
    "address": "인천광역시 연수구 앵고개로 241",
    "lon": 126.671288972739,
    "lat": 37.4091495210335,
    "type": "소방",
    "level": "안전센터",
    "tel": ""
  },
  {
    "name": "옥련119안전센터",
    "address": "인천광역시 연수구 청량로155번길 7",
    "lon": 126.651934248826,
    "lat": 37.4206698228865,
    "type": "소방",
    "level": "안전센터",
    "tel": ""
  },
  {
    "name": "국제119안전센터",
    "address": "인천광역시 연수구 센트럴로 412",
    "lon": 126.6287822744,
    "lat": 37.4102286285073,
    "type": "소방",
    "level": "안전센터",
    "tel": ""
  },
  {
    "name": "신송119안전센터",
    "address": "인천광역시 연수구 해돋이로 92",
    "lon": 126.65189340908,
    "lat": 37.3909227454514,
    "type": "소방",
    "level": "안전센터",
    "tel": ""
  },
  {
    "name": "중부소방서(중앙119안전센터)",
    "address": "인천광역시 중구 인중로 204",
    "lon": 126.622340066185,
    "lat": 37.4701498156144,
    "type": "소방",
    "level": "소방서",
    "tel": ""
  },
  {
    "name": "연안119안전센터",
    "address": "인천광역시 중구 축항대로118번길 108",
    "lon": 126.604156383729,
    "lat": 37.4466047459004,
    "type": "소방",
    "level": "안전센터",
    "tel": ""
  },
  {
    "name": "부천소방서(중앙119안전센터)",
    "address": "경기도 부천시 원미구 신흥로 115",
    "lon": 126.778052569053,
    "lat": 37.4940124263173,
    "type": "소방",
    "level": "소방서",
    "tel": ""
  },
  {
    "name": "중동119안전센터",
    "address": "경기도 부천시 원미구 부일로 346",
    "lon": 126.76852800331,
    "lat": 37.4877205366711,
    "type": "소방",
    "level": "안전센터",
    "tel": ""
  },
  {
    "name": "상동119안전센터",
    "address": "경기도 부천시 원미구 장말로 113",
    "lon": 126.754496545474,
    "lat": 37.4942981137064,
    "type": "소방",
    "level": "안전센터",
    "tel": ""
  },
  {
    "name": "서부119안전센터",
    "address": "경기도 부천시 원미구 계남로 169",
    "lon": 126.767774185027,
    "lat": 37.5079070548544,
    "type": "소방",
    "level": "안전센터",
    "tel": ""
  },
  {
    "name": "신상119안전센터",
    "address": "경기도 부천시 원미구 상동로117번길 36",
    "lon": 126.751559932545,
    "lat": 37.5081274274471,
    "type": "소방",
    "level": "안전센터",
    "tel": ""
  },
  {
    "name": "은행119안전센터",
    "address": "경기도 시흥시 대은로 4",
    "lon": 126.793289026629,
    "lat": 37.4393655399614,
    "type": "소방",
    "level": "안전센터",
    "tel": ""
  }
]